[
  {
    "name": "Vienna",
    "lat": "48.20849",
    "lng": "16.37208",
    "country": "AT",
    "admin1": "09",
    "admin2": "900",
    "area_km2": 414.6
  },
  {
    "name": "Brussels",
    "lat": "50.85045",
    "lng": "4.34878",
    "country": "BE",
    "admin1": "BRU",
    "admin2": "BRU",
    "area_km2": 32.61
  },
  {
    "name": "Sofia",
    "lat": "42.69751",
    "lng": "23.32415",
    "country": "BG",
    "admin1": "42",
    "admin2": "SOF46",
    "area_km2": 492
  },
  {
    "name": "Minsk",
    "lat": "53.9",
    "lng": "27.56667",
    "country": "BY",
    "admin1": "04",
    "admin2": "",
    "area_km2": 409.5
  },
  {
    "name": "Zürich",
    "lat": "47.36667",
    "lng": "8.55",
    "country": "CH",
    "admin1": "ZH",
    "admin2": "112",
    "area_km2": 87.88
  },
  {
    "name": "Prague",
    "lat": "50.08804",
    "lng": "14.42076",
    "country": "CZ",
    "admin1": "52",
    "admin2": "",
    "area_km2": 496.21
  },
  {
    "name": "Munich",
    "lat": "48.13743",
    "lng": "11.57549",
    "country": "DE",
    "admin1": "02",
    "admin2": "091",
    "area_km2": 310.4
  },
  {
    "name": "Köln",
    "lat": "50.93333",
    "lng": "6.95",
    "country": "DE",
    "admin1": "07",
    "admin2": "053",
    "area_km2": 405.2
  },
  {
    "name": "Hamburg",
    "lat": "53.55073",
    "lng": "9.99302",
    "country": "DE",
    "admin1": "04",
    "admin2": "00",
    "area_km2": 755.3
  },
  {
    "name": "Berlin",
    "lat": "52.52437",
    "lng": "13.41053",
    "country": "DE",
    "admin1": "16",
    "admin2": "00",
    "area_km2": 891.8
  },
  {
    "name": "Copenhagen",
    "lat": "55.67594",
    "lng": "12.56553",
    "country": "DK",
    "admin1": "17",
    "admin2": "101",
    "area_km2": 179.8 
  },
  {
    "name": "Madrid",
    "lat": "40.4165",
    "lng": "-3.70256",
    "country": "ES",
    "admin1": "29",
    "admin2": "M",
    "area_km2": 604.3
  },
  {
    "name": "Barcelona",
    "lat": "41.38879",
    "lng": "2.15899",
    "country": "ES",
    "admin1": "56",
    "admin2": "B", 
    "area_km2": 101.9
  },
  {
    "name": "Helsinki",
    "lat": "60.16952",
    "lng": "24.93545",
    "country": "FI",
    "admin1": "01",
    "admin2": "011", 
    "area_km2": 213.8
  },
  {
    "name": "Paris",
    "lat": "48.85341",
    "lng": "2.3488",
    "country": "FR",
    "admin1": "11",
    "admin2": "75", 
    "area_km2": 105.4
  },
  {
    "name": "Lyon",
    "lat": "45.74846",
    "lng": "4.84671",
    "country": "FR",
    "admin1": "84",
    "admin2": "69", 
    "area_km2": 47.87
  },
  {
    "name": "Lille",
    "lat": "50.63297",
    "lng": "3.05858",
    "country": "FR",
    "admin1": "32",
    "admin2": "59"
  },
  {
    "name": "Marseille Prefecture",
    "lat": "43.29092",
    "lng": "5.37901",
    "country": "FR",
    "admin1": "93",
    "admin2": "13", 
    "area_km2": 240.6
  },
  {
    "name": "Manchester",
    "lat": "53.48095",
    "lng": "-2.23743",
    "country": "GB",
    "admin1": "ENG",
    "admin2": "I2", 
    "area_km2": 116.5
  },
  {
    "name": "London",
    "lat": "51.50853",
    "lng": "-0.12574",
    "country": "GB",
    "admin1": "ENG",
    "admin2": "GLA", 
    "area_km2": 1572
  },
  {
    "name": "Glasgow",
    "lat": "55.86515",
    "lng": "-4.25763",
    "country": "GB",
    "admin1": "SCT",
    "admin2": "V2", 
    "area_km2": 175
  },
  {
    "name": "Birmingham",
    "lat": "52.48142",
    "lng": "-1.89983",
    "country": "GB",
    "admin1": "ENG",
    "admin2": "A7",
    "area_km2": 267.8
  },
  {
    "name": "Athens",
    "lat": "37.98376",
    "lng": "23.72784",
    "country": "GR",
    "admin1": "ESYE31",
    "admin2": "99",
    "area_km2": 38.96
  },
  {
    "name": "Budapest",
    "lat": "47.49835",
    "lng": "19.04045",
    "country": "HU",
    "admin1": "05",
    "admin2": "",
    "area_km2": 525.2
  },
  {
    "name": "Dublin",
    "lat": "53.33306",
    "lng": "-6.24889",
    "country": "IE",
    "admin1": "L",
    "admin2": "33", 
    "area_km2": 117.8
  },
  {
    "name": "Turin",
    "lat": "45.07049",
    "lng": "7.68682",
    "country": "IT",
    "admin1": "12",
    "admin2": "TO", 
    "area_km2": 130.2
  },
  {
    "name": "Rome",
    "lat": "41.89193",
    "lng": "12.51133",
    "country": "IT",
    "admin1": "07",
    "admin2": "RM"
  },
  {
    "name": "Milan",
    "lat": "45.46427",
    "lng": "9.18951",
    "country": "IT",
    "admin1": "09",
    "admin2": "MI", 
    "area_km2": 181.8
  },
  {
    "name": "Amsterdam",
    "lat": "52.37403",
    "lng": "4.88969",
    "country": "NL",
    "admin1": "07",
    "admin2": "0363"
  },
  {
    "name": "Oslo",
    "lat": "59.91273",
    "lng": "10.74609",
    "country": "NO",
    "admin1": "12",
    "admin2": "0301"
  },
  {
    "name": "Warsaw",
    "lat": "52.22977",
    "lng": "21.01178",
    "country": "PL",
    "admin1": "78",
    "admin2": "1465"
  },
  {
    "name": "Lisbon",
    "lat": "38.71667",
    "lng": "-9.13333",
    "country": "PT",
    "admin1": "14",
    "admin2": "1106"
  },
  {
    "name": "Porto",
    "lat": "41.14961",
    "lng": "-8.61099",
    "country": "PT",
    "admin1": "17",
    "admin2": "1312"
  },
  {
    "name": "Bucureşci",
    "lat": "46.13333",
    "lng": "22.9",
    "country": "RO",
    "admin1": "21",
    "admin2": "88868"
  },
  {
    "name": "Novi Beograd",
    "lat": "44.80556",
    "lng": "20.42417",
    "country": "RS",
    "admin1": "SE",
    "admin2": "0"
  },
  {
    "name": "Ufa",
    "lat": "54.74306",
    "lng": "55.96779",
    "country": "RU",
    "admin1": "08",
    "admin2": ""
  },
  {
    "name": "Saint Petersburg",
    "lat": "59.93863",
    "lng": "30.31413",
    "country": "RU",
    "admin1": "66",
    "admin2": ""
  },
  {
    "name": "Samara",
    "lat": "53.20007",
    "lng": "50.15",
    "country": "RU",
    "admin1": "65",
    "admin2": ""
  },
  {
    "name": "Rostov-na-Donu",
    "lat": "47.23135",
    "lng": "39.72328",
    "country": "RU",
    "admin1": "61",
    "admin2": ""
  },
  {
    "name": "Nizhniy Novgorod",
    "lat": "56.32867",
    "lng": "44.00205",
    "country": "RU",
    "admin1": "51",
    "admin2": ""
  },
  {
    "name": "Moscow",
    "lat": "55.75222",
    "lng": "37.61556",
    "country": "RU",
    "admin1": "48",
    "admin2": ""
  },
  {
    "name": "Kazan",
    "lat": "55.78874",
    "lng": "49.12214",
    "country": "RU",
    "admin1": "73",
    "admin2": "862913"
  },
  {
    "name": "Yekaterinburg",
    "lat": "56.8519",
    "lng": "60.6122",
    "country": "RU",
    "admin1": "71",
    "admin2": ""
  },
  {
    "name": "Omsk",
    "lat": "54.99244",
    "lng": "73.36859",
    "country": "RU",
    "admin1": "54",
    "admin2": ""
  },
  {
    "name": "Novosibirsk",
    "lat": "55.03442",
    "lng": "82.94339",
    "country": "RU",
    "admin1": "53",
    "admin2": "1496742"
  },
  {
    "name": "Krasnoyarsk",
    "lat": "56.02668",
    "lng": "92.90765",
    "country": "RU",
    "admin1": "91",
    "admin2": ""
  },
  {
    "name": "Chelyabinsk",
    "lat": "55.15402",
    "lng": "61.42915",
    "country": "RU",
    "admin1": "13",
    "admin2": "1535932"
  },
  {
    "name": "Stockholm",
    "lat": "59.32938",
    "lng": "18.06871",
    "country": "SE",
    "admin1": "26",
    "admin2": "0180"
  },
  {
    "name": "Kyiv",
    "lat": "50.45466",
    "lng": "30.5238",
    "country": "UA",
    "admin1": "12",
    "admin2": ""
  },
  {
    "name": "Kharkiv",
    "lat": "49.98081",
    "lng": "36.25272",
    "country": "UA",
    "admin1": "07",
    "admin2": "6312"
  }
]